{
"type": "FeatureCollection",
"crs": { "type": "name", "properties": { "name": "urn:ogc:def:crs:OGC:1.3:CRS84" } },
"features": [
{ "type": "Feature", "properties": { "ID": "HRC01", "NAME": "Hellenic Red Cross", "TYPE": "Headquarters", "CATEGORY": "HRC Headquarters", "TOWN": "Athens", "REGION": "Attica", "LATITUDE": 37.9792777, "LONGITUDE": 23.7363814, "BENEFICIARIES 2015": null, "STAFF": null }, "geometry": { "type": "Point", "coordinates": [ 23.7363814, 37.9792777 ] } },
{ "type": "Feature", "properties": { "ID": "HRC02", "NAME": "HRC Agrinio Branch", "TYPE": "Branch", "CATEGORY": "HRC Branch", "TOWN": "Agrinio", "REGION": "Western Greece", "LATITUDE": 35.183333, "LONGITUDE": 25.716667, "BENEFICIARIES 2015": null, "STAFF": null }, "geometry": { "type": "Point", "coordinates": [ 25.716667, 35.183333 ] } },
{ "type": "Feature", "properties": { "ID": "HRC03", "NAME": "HRC Alexandroupoli Branch", "TYPE": "Branch", "CATEGORY": "HRC Branch", "TOWN": "Alexandroupoli", "REGION": "Eastern Macedonia and Thrace", "LATITUDE": 40.85, "LONGITUDE": 25.866667, "BENEFICIARIES 2015": 2748, "STAFF": "2 Nurses" }, "geometry": { "type": "Point", "coordinates": [ 25.866667, 40.85 ] } },
{ "type": "Feature", "properties": { "ID": "HRC04", "NAME": "HRC Argos Branch", "TYPE": "Branch", "CATEGORY": "HRC Branch", "TOWN": "Argos", "REGION": "Peloponnese", "LATITUDE": 37.616667, "LONGITUDE": 22.716667, "BENEFICIARIES 2015": null, "STAFF": null }, "geometry": { "type": "Point", "coordinates": [ 22.716667, 37.616667 ] } },
{ "type": "Feature", "properties": { "ID": "HRC05", "NAME": "HRC Arta Branch", "TYPE": "Branch", "CATEGORY": "HRC Branch", "TOWN": "Arta", "REGION": "Epirus", "LATITUDE": 39.15, "LONGITUDE": 20.983333, "BENEFICIARIES 2015": null, "STAFF": null }, "geometry": { "type": "Point", "coordinates": [ 20.983333, 39.15 ] } },
{ "type": "Feature", "properties": { "ID": "HRC06", "NAME": "HRC Chalkida Branch", "TYPE": "Branch", "CATEGORY": "HRC Branch", "TOWN": "Chalkida", "REGION": "Central Greece", "LATITUDE": 38.466667, "LONGITUDE": 23.6, "BENEFICIARIES 2015": null, "STAFF": null }, "geometry": { "type": "Point", "coordinates": [ 23.6, 38.466667 ] } },
{ "type": "Feature", "properties": { "ID": "HRC07", "NAME": "HRC Chania Branch", "TYPE": "Branch", "CATEGORY": "HRC Branch", "TOWN": "Chania", "REGION": "Crete", "LATITUDE": 35.516667, "LONGITUDE": 24.016667, "BENEFICIARIES 2015": null, "STAFF": null }, "geometry": { "type": "Point", "coordinates": [ 24.016667, 35.516667 ] } },
{ "type": "Feature", "properties": { "ID": "HRC08", "NAME": "HRC Corfu Branch", "TYPE": "Branch", "CATEGORY": "HRC Branch", "TOWN": "Corfu", "REGION": "Ionian Islands", "LATITUDE": 39.616667, "LONGITUDE": 19.916667, "BENEFICIARIES 2015": null, "STAFF": null }, "geometry": { "type": "Point", "coordinates": [ 19.916667, 39.616667 ] } },
{ "type": "Feature", "properties": { "ID": "HRC09", "NAME": "HRC Drama Branch", "TYPE": "Branch", "CATEGORY": "HRC Branch", "TOWN": "Drama", "REGION": "Eastern Macedonia and Thrace", "LATITUDE": 41.15, "LONGITUDE": 24.133333, "BENEFICIARIES 2015": 1780, "STAFF": "1 Nurse" }, "geometry": { "type": "Point", "coordinates": [ 24.133333, 41.15 ] } },
{ "type": "Feature", "properties": { "ID": "HRC10", "NAME": "HRC Florina Branch", "TYPE": "Branch", "CATEGORY": "HRC Branch", "TOWN": "Florina", "REGION": "Western Macedonia", "LATITUDE": 40.783333, "LONGITUDE": 21.4, "BENEFICIARIES 2015": null, "STAFF": null }, "geometry": { "type": "Point", "coordinates": [ 21.4, 40.783333 ] } },
{ "type": "Feature", "properties": { "ID": "HRC11", "NAME": "HRC Heraklion Branch", "TYPE": "Branch", "CATEGORY": "HRC Branch", "TOWN": "Heraklion", "REGION": "Crete", "LATITUDE": 35.333333, "LONGITUDE": 25.133333, "BENEFICIARIES 2015": null, "STAFF": null }, "geometry": { "type": "Point", "coordinates": [ 25.133333, 35.333333 ] } },
{ "type": "Feature", "properties": { "ID": "HRC12", "NAME": "HRC Ierapetra Branch", "TYPE": "Branch", "CATEGORY": "HRC Branch", "TOWN": "Ierapetra", "REGION": "Crete", "LATITUDE": 35.0, "LONGITUDE": 25.733333, "BENEFICIARIES 2015": null, "STAFF": null }, "geometry": { "type": "Point", "coordinates": [ 25.733333, 35.0 ] } },
{ "type": "Feature", "properties": { "ID": "HRC13", "NAME": "HRC Igoumenitsa Branch", "TYPE": "Branch", "CATEGORY": "HRC Branch", "TOWN": "Igoumenitsa", "REGION": "Epirus", "LATITUDE": 39.483333, "LONGITUDE": 20.266667, "BENEFICIARIES 2015": null, "STAFF": null }, "geometry": { "type": "Point", "coordinates": [ 20.266667, 39.483333 ] } },
{ "type": "Feature", "properties": { "ID": "HRC14", "NAME": "HRC Ioannina Branch", "TYPE": "Branch", "CATEGORY": "HRC Branch", "TOWN": "Ioannina", "REGION": "Epirus", "LATITUDE": 39.6633778, "LONGITUDE": 20.8237315, "BENEFICIARIES 2015": null, "STAFF": null }, "geometry": { "type": "Point", "coordinates": [ 20.8237315, 39.6633778 ] } },
{ "type": "Feature", "properties": { "ID": "HRC15", "NAME": "HRC Kalamata Branch", "TYPE": "Branch", "CATEGORY": "HRC Branch", "TOWN": "Kalamata", "REGION": "Peloponnese", "LATITUDE": 37.033333, "LONGITUDE": 22.116667, "BENEFICIARIES 2015": null, "STAFF": null }, "geometry": { "type": "Point", "coordinates": [ 22.116667, 37.033333 ] } },
{ "type": "Feature", "properties": { "ID": "HRC16", "NAME": "HRC Karditsa Branch", "TYPE": "Branch", "CATEGORY": "HRC Branch", "TOWN": "Karditsa", "REGION": "Thessaly", "LATITUDE": 39.366667, "LONGITUDE": 21.916667, "BENEFICIARIES 2015": null, "STAFF": null }, "geometry": { "type": "Point", "coordinates": [ 21.916667, 39.366667 ] } },
{ "type": "Feature", "properties": { "ID": "HRC17", "NAME": "HRC Kastoria Branch", "TYPE": "Branch", "CATEGORY": "HRC Branch", "TOWN": "Kastoria", "REGION": "Western Macedonia", "LATITUDE": 40.516667, "LONGITUDE": 21.266667, "BENEFICIARIES 2015": null, "STAFF": null }, "geometry": { "type": "Point", "coordinates": [ 21.266667, 40.516667 ] } },
{ "type": "Feature", "properties": { "ID": "HRC18", "NAME": "HRC Katerini Branch", "TYPE": "Branch", "CATEGORY": "HRC Branch", "TOWN": "Katerini", "REGION": "Central Macedonia", "LATITUDE": 40.266667, "LONGITUDE": 22.5, "BENEFICIARIES 2015": null, "STAFF": null }, "geometry": { "type": "Point", "coordinates": [ 22.5, 40.266667 ] } },
{ "type": "Feature", "properties": { "ID": "HRC19", "NAME": "HRC Kozani Branch", "TYPE": "Branch", "CATEGORY": "HRC Branch", "TOWN": "Kozani", "REGION": "Western Macedonia", "LATITUDE": 40.3, "LONGITUDE": 21.783333, "BENEFICIARIES 2015": null, "STAFF": null }, "geometry": { "type": "Point", "coordinates": [ 21.783333, 40.3 ] } },
{ "type": "Feature", "properties": { "ID": "HRC20", "NAME": "HRC Lamia Branch", "TYPE": "Branch", "CATEGORY": "HRC Branch", "TOWN": "Lamia", "REGION": "Central Greece", "LATITUDE": 38.9, "LONGITUDE": 22.433333, "BENEFICIARIES 2015": null, "STAFF": null }, "geometry": { "type": "Point", "coordinates": [ 22.433333, 38.9 ] } },
{ "type": "Feature", "properties": { "ID": "HRC21", "NAME": "HRC Larissa Branch", "TYPE": "Branch", "CATEGORY": "HRC Branch", "TOWN": "Larissa", "REGION": "Thessaly", "LATITUDE": 39.641667, "LONGITUDE": 22.416667, "BENEFICIARIES 2015": null, "STAFF": null }, "geometry": { "type": "Point", "coordinates": [ 22.416667, 39.641667 ] } },
{ "type": "Feature", "properties": { "ID": "HRC22", "NAME": "HRC Missolonghi Branch", "TYPE": "Branch", "CATEGORY": "HRC Branch", "TOWN": "Missolonghi", "REGION": "Western Greece", "LATITUDE": 38.383333, "LONGITUDE": 21.433333, "BENEFICIARIES 2015": null, "STAFF": null }, "geometry": { "type": "Point", "coordinates": [ 21.433333, 38.383333 ] } },
{ "type": "Feature", "properties": { "ID": "HRC23", "NAME": "HRC Nafpaktos Branch", "TYPE": "Branch", "CATEGORY": "HRC Branch", "TOWN": "Nafpaktos", "REGION": "Western Greece", "LATITUDE": 38.383333, "LONGITUDE": 21.816667, "BENEFICIARIES 2015": null, "STAFF": null }, "geometry": { "type": "Point", "coordinates": [ 21.816667, 38.383333 ] } },
{ "type": "Feature", "properties": { "ID": "HRC24", "NAME": "HRC Nafplio Branch", "TYPE": "Branch", "CATEGORY": "HRC Branch", "TOWN": "Nafplio", "REGION": "Peloponnese", "LATITUDE": 37.566667, "LONGITUDE": 22.8, "BENEFICIARIES 2015": null, "STAFF": null }, "geometry": { "type": "Point", "coordinates": [ 22.8, 37.566667 ] } },
{ "type": "Feature", "properties": { "ID": "HRC25", "NAME": "HRC Patras Branch", "TYPE": "Branch", "CATEGORY": "HRC Branch", "TOWN": "Patras", "REGION": "Western Greece", "LATITUDE": 38.25, "LONGITUDE": 21.733333, "BENEFICIARIES 2015": null, "STAFF": null }, "geometry": { "type": "Point", "coordinates": [ 21.733333, 38.25 ] } },
{ "type": "Feature", "properties": { "ID": "HRC26", "NAME": "HRC Piraeus Branch", "TYPE": "Branch", "CATEGORY": "HRC Branch", "TOWN": "Piraeus", "REGION": "Attica", "LATITUDE": 37.95, "LONGITUDE": 23.633333, "BENEFICIARIES 2015": 5325, "STAFF": "1 Social Worker, 2 Nurses" }, "geometry": { "type": "Point", "coordinates": [ 23.633333, 37.95 ] } },
{ "type": "Feature", "properties": { "ID": "HRC27", "NAME": "HRC Serres Branch", "TYPE": "Branch", "CATEGORY": "HRC Branch", "TOWN": "Serres", "REGION": "Central Macedonia", "LATITUDE": 41.083333, "LONGITUDE": 23.55, "BENEFICIARIES 2015": null, "STAFF": null }, "geometry": { "type": "Point", "coordinates": [ 23.55, 41.083333 ] } },
{ "type": "Feature", "properties": { "ID": "HRC28", "NAME": "HRC Sparta Branch", "TYPE": "Branch", "CATEGORY": "HRC Branch", "TOWN": "Sparta", "REGION": "Peloponnese", "LATITUDE": 37.066667, "LONGITUDE": 22.433333, "BENEFICIARIES 2015": null, "STAFF": null }, "geometry": { "type": "Point", "coordinates": [ 22.433333, 37.066667 ] } },
{ "type": "Feature", "properties": { "ID": "HRC29", "NAME": "HRC Thessaloniki Branch", "TYPE": "Branch", "CATEGORY": "HRC Branch", "TOWN": "Thessaloniki", "REGION": "Central Macedonia", "LATITUDE": 40.65, "LONGITUDE": 22.9, "BENEFICIARIES 2015": null, "STAFF": null }, "geometry": { "type": "Point", "coordinates": [ 22.9, 40.65 ] } },
{ "type": "Feature", "properties": { "ID": "HRC30", "NAME": "HRC Trikala Branch", "TYPE": "Branch", "CATEGORY": "HRC Branch", "TOWN": "Trikala", "REGION": "Thessaly", "LATITUDE": 39.55, "LONGITUDE": 21.766667, "BENEFICIARIES 2015": null, "STAFF": null }, "geometry": { "type": "Point", "coordinates": [ 21.766667, 39.55 ] } },
{ "type": "Feature", "properties": { "ID": "HRC31", "NAME": "HRC Veria Branch", "TYPE": "Branch", "CATEGORY": "HRC Branch", "TOWN": "Veria", "REGION": "Central Macedonia", "LATITUDE": 40.516667, "LONGITUDE": 22.2, "BENEFICIARIES 2015": null, "STAFF": null }, "geometry": { "type": "Point", "coordinates": [ 22.2, 40.516667 ] } },
{ "type": "Feature", "properties": { "ID": "HRC32", "NAME": "HRC Volos Branch", "TYPE": "Branch", "CATEGORY": "HRC Branch", "TOWN": "Volos", "REGION": "Thessaly", "LATITUDE": 39.366667, "LONGITUDE": 22.933333, "BENEFICIARIES 2015": null, "STAFF": null }, "geometry": { "type": "Point", "coordinates": [ 22.933333, 39.366667 ] } },
{ "type": "Feature", "properties": { "ID": "HRC33", "NAME": "Temporary Accommodation Centre for Asylum Seekers", "TYPE": "Facility", "CATEGORY": "Accommodation Centre", "TOWN": "Lavrio", "REGION": "Attica", "LATITUDE": 37.7, "LONGITUDE": 24.05, "BENEFICIARIES 2015": 4868, "STAFF": null }, "geometry": { "type": "Point", "coordinates": [ 24.05, 37.7 ] } },
{ "type": "Feature", "properties": { "ID": "HRC34", "NAME": "Reception Centre for Unaccompanied Minors", "TYPE": "Facility", "CATEGORY": "Accommodation Centre", "TOWN": "Agria Volos", "REGION": "Thessaly", "LATITUDE": 39.366667, "LONGITUDE": 23.033333, "BENEFICIARIES 2015": 318, "STAFF": null }, "geometry": { "type": "Point", "coordinates": [ 23.033333, 39.366667 ] } },
{ "type": "Feature", "properties": { "ID": "HRC35", "NAME": "Multifunctional Centre of Social Support and Integration of Refugees", "TYPE": "Facility", "CATEGORY": "Multifunctional Centre", "TOWN": "Athens", "REGION": "Attica", "LATITUDE": 37.9868156, "LONGITUDE": 23.711387, "BENEFICIARIES 2015": 300, "STAFF": null }, "geometry": { "type": "Point", "coordinates": [ 23.711387, 37.9868156 ] } },
{ "type": "Feature", "properties": { "ID": "HRC36", "NAME": "STEGI PLUS (+)", "TYPE": "Facility", "CATEGORY": "Accommodation Centre", "TOWN": "Patras", "REGION": "Western Greece", "LATITUDE": 38.250756, "LONGITUDE": 21.738963, "BENEFICIARIES 2015": 127, "STAFF": null }, "geometry": { "type": "Point", "coordinates": [ 21.738963, 38.250756 ] } },
{ "type": "Feature", "properties": { "ID": "HRC37", "NAME": "STEGI PLUS (+)", "TYPE": "Facility", "CATEGORY": "Accommodation Centre", "TOWN": "Athens", "REGION": "Attica", "LATITUDE": 38.011854, "LONGITUDE": 23.7362986, "BENEFICIARIES 2015": 68, "STAFF": null }, "geometry": { "type": "Point", "coordinates": [ 23.7362986, 38.011854 ] } },
{ "type": "Feature", "properties": { "ID": "HRC38", "NAME": "Primary Health Care Centre", "TYPE": "Facility", "CATEGORY": "Health Centre", "TOWN": "Ampelokipoi", "REGION": "Attica", "LATITUDE": 37.989722, "LONGITUDE": 23.764722, "BENEFICIARIES 2015": 3730, "STAFF": null }, "geometry": { "type": "Point", "coordinates": [ 23.764722, 37.989722 ] } },
{ "type": "Feature", "properties": { "ID": "HRC39", "NAME": "Primary Health Care Centre", "TYPE": "Facility", "CATEGORY": "Health Centre", "TOWN": "Ano Liosia", "REGION": "Attica", "LATITUDE": 38.083333, "LONGITUDE": 23.7, "BENEFICIARIES 2015": 9743, "STAFF": null }, "geometry": { "type": "Point", "coordinates": [ 23.7, 38.083333 ] } },
{ "type": "Feature", "properties": { "ID": "HRC40", "NAME": "Primary Health Care Centre", "TYPE": "Facility", "CATEGORY": "Health Centre", "TOWN": "Kallithea", "REGION": "Attica", "LATITUDE": 37.95, "LONGITUDE": 23.7, "BENEFICIARIES 2015": 1619, "STAFF": null }, "geometry": { "type": "Point", "coordinates": [ 23.7, 37.95 ] } },
{ "type": "Feature", "properties": { "ID": "HRC41", "NAME": "Social Shelter for the Homeless", "TYPE": "Facility", "CATEGORY": "Homeless Shelter", "TOWN": "Athens", "REGION": "Attica", "LATITUDE": 37.981377, "LONGITUDE": 23.7226122, "BENEFICIARIES 2015": 308, "STAFF": null }, "geometry": { "type": "Point", "coordinates": [ 23.7226122, 37.981377 ] } }
]
}
